dttm,lon,lat,sys_dttm,sys_date,sys_time,nav_dttm,nav_time,nav_lon,nav_lat,nav_sog,nav_cog,nav_quality,lab_dttm,lab_time,lab_lon,lab_lat,lab_sog,lab_cog,lab_quality,temp,sal,fluor,fluor_1min,fluor_60min,CDOM,CDOM_1min,CDOM_60min,xmiss,xmiss_1min,xmiss_60min,wind_sp,wind_dir,wind_sp_rel,wind_dir_rel,heading,pitch,roll,depth,wire_payout,wire_tension,wire_speed
2018-06-08T19:24:23.000Z,-70.67108833333333,41.52334666666667,2018-06-08T19:21:53.000Z,2018-06-08,19:21:53,NA,"NA",-70.67108833333333,41.52334666666667,NA,NA,1,2018-06-08T19:24:23.000Z,19:24:23,-70.671112,41.52335266666667,0.09,169.38,1,17.7467,0,989,995.78,996.37,223,223.57,223.57,4628,4584.37,4584.35,16,229.39,16,169,59.39,-0.41,1.53,NA,NA,NA,NA
2018-06-08T19:25:23.000Z,-70.671105,41.52334333333334,2018-06-08T19:22:53.000Z,2018-06-08,19:22:53,NA,"NA",-70.671105,41.52334333333334,NA,NA,1,2018-06-08T19:25:23.000Z,19:25:23,-70.671113,41.523352333333335,0.03,0,1,17.7502,0,1017,991.66,995.87,225,223.53,223.56,4630,4589.23,4589.21,20,227.64,20,164,59.63,-0.38,1.36,NA,NA,NA,NA
2018-06-08T19:26:23.000Z,-70.67110333333333,41.523335,2018-06-08T19:23:53.000Z,2018-06-08,19:23:53,NA,"NA",-70.67110333333333,41.523335,NA,NA,1,2018-06-08T19:26:23.000Z,19:26:23,-70.6711055,41.5233365,0.26,274.63,1,17.7531,0,1026,993.58,995.64,223,223.87,223.59,4637,4593.53,4593.5,20.8,226.98,20,173,55.21,-0.47,1.64,NA,NA,NA,NA
2018-06-08T19:27:23.000Z,-70.671365,41.52326333333333,2018-06-08T19:24:53.000Z,2018-06-08,19:24:53,NA,"NA",-70.671365,41.52326333333333,NA,NA,1,2018-06-08T19:27:23.000Z,19:27:23,-70.671391,41.52326216666667,1.4,241.28,1,17.756,0,1049,997.68,995.87,223,223.77,223.61,4652,4605.35,4598.18,20.01,222.65,21,161,64.99,-0.55,1.13,NA,NA,NA,NA
2018-06-08T19:28:23.000Z,-70.67191,41.52292833333333,2018-06-08T19:25:53.000Z,2018-06-08,19:25:53,NA,"NA",-70.67191,41.52292833333333,NA,NA,1,2018-06-08T19:28:23.000Z,19:28:23,-70.67193983333334,41.52290983333334,2.41,221.45,1,17.7586,0,987,998.63,996.02,222,223.73,223.61,4659,4613.42,4603.01,19.71,219.34,22,175,46.34,-0.52,1.74,NA,NA,NA,NA
2018-06-08T19:29:23.000Z,-70.67229166666667,41.52241166666666,2018-06-08T19:26:53.000Z,2018-06-08,19:26:53,NA,"NA",-70.67229166666667,41.52241166666666,NA,NA,1,2018-06-08T19:29:23.000Z,19:29:23,-70.672287,41.52241433333333,0.63,43.84,1,17.7613,0,971,991.53,995.69,224,223.78,223.63,4671,4621.85,4607.65,18.32,221.58,18,195,25.95,-0.38,2.12,NA,NA,NA,NA
2018-06-08T19:30:23.000Z,-70.67201333333334,41.52274166666667,2018-06-08T19:27:53.000Z,2018-06-08,19:27:53,NA,"NA",-70.67201333333334,41.52274166666667,NA,NA,1,2018-06-08T19:30:23.000Z,19:30:23,-70.672004,41.522755,0.95,22.66,1,17.764,0,991,1001.98,996.15,222,223.53,223.63,4685,4630.96,4612.69,15.19,231.1,16,204,23.98,-0.42,2.91,NA,NA,NA,NA
2018-06-08T19:31:23.000Z,-70.671885,41.52290333333333,2018-06-08T19:28:53.000Z,2018-06-08,19:28:53,NA,"NA",-70.671885,41.52290333333333,NA,NA,1,2018-06-08T19:31:23.000Z,19:31:23,-70.6718715,41.52291016666667,1.03,43.48,1,17.7665,0,1008,995.17,996.09,222,223.68,223.63,4690,4639.79,4617.64,14.9,229.87,15,185,34.68,-0.35,2.19,NA,NA,NA,NA
2018-06-08T19:32:23.000Z,-70.67187333333334,41.522945,2018-06-08T19:29:53.000Z,2018-06-08,19:29:53,NA,"NA",-70.67187333333334,41.522945,NA,NA,1,2018-06-08T19:32:23.000Z,19:32:23,-70.67187516666667,41.522948,0.62,231.62,1,17.7691,0,1032,997.41,996.16,222,223.57,223.64,4694,4648.31,4622.18,17.84,219.54,20,171,52.17,-0.54,1.12,NA,NA,NA,NA
2018-06-08T19:33:23.000Z,-70.67221833333333,41.522755,2018-06-08T19:30:53.000Z,2018-06-08,19:30:53,NA,"NA",-70.67221833333333,41.522755,NA,NA,1,2018-06-08T19:33:23.000Z,19:33:23,-70.67223233333333,41.52274283333333,1.92,222.37,1,16.3919,30.7221,2355,2158.24,1064.45,252,283.63,227.42,8127,4550.31,4560.18,20.45,220.61,22,163,55.49,-0.35,1.49,NA,NA,NA,NA
2018-06-08T19:34:23.000Z,-70.67257833333333,41.522238333333334,2018-06-08T19:31:53.000Z,2018-06-08,19:31:53,NA,"NA",-70.67257833333333,41.522238333333334,NA,NA,1,2018-06-08T19:34:23.000Z,19:34:23,-70.67258466666667,41.52221616666667,2.43,201.67,1,16.309,31.4694,2195,2200,1126.32,234,237.42,227.99,10556,5045.32,4859.25,16.71,222.41,19,193,28.71,-0.38,1.94,NA,NA,NA,NA
2018-06-08T19:35:23.000Z,-70.67316666666666,41.521721666666664,2018-06-08T19:32:53.000Z,2018-06-08,19:32:53,NA,"NA",-70.67316666666666,41.521721666666664,NA,NA,1,2018-06-08T19:35:23.000Z,19:35:23,-70.67320616666666,41.521713,2.46,244.74,1,16.2982,31.5182,2260,2214,1183.56,230,231.58,228.18,10506,5579.18,5153.32,19.81,223.05,22,167,66.2,-0.43,1.42,NA,NA,NA,NA
2018-06-08T19:36:23.000Z,-70.673905,41.521685,2018-06-08T19:33:53.000Z,2018-06-08,19:33:53,NA,"NA",-70.673905,41.521685,NA,NA,1,2018-06-08T19:36:23.000Z,19:36:23,-70.67391683333334,41.521691833333335,0.61,294.2,1,16.2964,31.5625,2083,2170.64,1232.05,230,229.95,228.28,10816,6105.98,5415.42,17.64,221.28,18,130,94.52,-0.27,0.69,NA,NA,NA,NA
2018-06-08T19:37:23.000Z,-70.67336833333333,41.521585,2018-06-08T19:34:53.000Z,2018-06-08,19:34:53,NA,"NA",-70.67336833333333,41.521585,NA,NA,1,2018-06-08T19:37:23.000Z,19:37:23,-70.6733245,41.52155416666667,3.53,137.68,1,16.2675,31.5836,2337,2204.46,1277.7,228,230.17,228.38,10665,6658.9,5667.49,18.05,229.23,19,69,148.61,-0.25,0.44,NA,NA,NA,NA
2018-06-08T19:38:23.000Z,-70.67243833333333,41.520585,2018-06-08T19:35:53.000Z,2018-06-08,19:35:53,NA,"NA",-70.67243833333333,41.520585,NA,NA,1,2018-06-08T19:38:23.000Z,19:38:23,-70.672359,41.52053033333333,5.81,138.11,1,16.299,31.549,2351,2261.22,1322.48,232,229.62,228.43,9536,7146.22,5864.81,16.12,230.05,18,43,169.23,-0.24,-0.16,NA,NA,NA,NA
2018-06-08T19:39:23.000Z,-70.671835,41.51911666666667,2018-06-08T19:36:53.000Z,2018-06-08,19:36:53,NA,"NA",-70.671835,41.51911666666667,NA,NA,1,2018-06-08T19:39:23.000Z,19:39:23,-70.67180266666666,41.519037833333336,6.29,160.8,1,16.297,31.5562,2203,2248,1362.78,229,229.42,228.47,10635,7684.65,6064.69,9.46,213.86,15,34,166.44,-0.37,1.25,NA,NA,NA,NA
2018-06-08T19:40:23.000Z,-70.67131166666667,41.51739166666667,2018-06-08T19:37:53.000Z,2018-06-08,19:37:53,NA,"NA",-70.67131166666667,41.51739166666667,NA,NA,1,2018-06-08T19:40:23.000Z,19:40:23,-70.6712825,41.51731733333333,6.3,161.64,1,16.2913,31.5654,2133,2170.22,1395.9,232,229.37,228.5,10226,8205.45,6243.9,17.39,228.78,21,43,173.17,-0.23,0.47,NA,NA,NA,NA
2018-06-08T19:41:23.000Z,-70.67061,41.51571833333333,2018-06-08T19:38:53.000Z,2018-06-08,19:38:53,NA,"NA",-70.67061,41.51571833333333,NA,NA,1,2018-06-08T19:41:23.000Z,19:41:23,-70.67057666666666,41.51564416666667,6.4,164.63,1,16.2532,31.5671,2e3,2106.93,1423.92,228,229.13,228.53,10934,8733.52,6412.58,17.44,227.99,22,34,177.78,-0.11,0.4,NA,NA,NA,NA
2018-06-08T19:42:23.000Z,-70.67006833333333,41.51401666666667,2018-06-08T19:39:53.000Z,2018-06-08,19:39:53,NA,"NA",-70.67006833333333,41.51401666666667,NA,NA,1,2018-06-08T19:42:23.000Z,19:42:23,-70.6700395,41.51394,6.34,166.23,1,16.2581,31.5618,2007,2062.15,1448.18,226,227.97,228.5,10866,9293.69,6582.23,18.38,228.5,23,43,173.48,-0.2,0.26,NA,NA,NA,NA
2018-06-08T19:43:23.000Z,-70.66961,41.51235833333333,2018-06-08T19:40:53.000Z,2018-06-08,19:40:53,NA,"NA",-70.66961,41.51235833333333,NA,NA,1,2018-06-08T19:43:23.000Z,19:43:23,-70.66959116666666,41.51227866666667,5.95,170.76,1,16.2714,31.5609,1965,1976.24,1468.14,229,228.12,228.48,11031,9855.84,6746.31,17.32,230.1,22,39,180.06,-0.23,0.33,0,NA,NA,NA
2018-06-08T19:44:23.000Z,-70.66925833333333,41.510756666666666,2018-06-08T19:41:53.000Z,2018-06-08,19:41:53,NA,"NA",-70.66925833333333,41.510756666666666,NA,NA,1,2018-06-08T19:44:23.000Z,19:44:23,-70.66923266666667,41.51067783333333,5.86,167.46,1,16.2945,31.5634,1960,1985.73,1486.38,228,228.65,228.49,10918,10545.42,6896.76,17.97,235.68,22,47,176.64,-0.31,0.7,10.51,NA,NA,NA
2018-06-08T19:45:23.000Z,-70.66868833333334,41.509365,2018-06-08T19:42:53.000Z,2018-06-08,19:42:53,NA,"NA",-70.66868833333334,41.509365,NA,NA,1,2018-06-08T19:45:23.000Z,19:45:23,-70.668653,41.509308,4.57,158.8,1,16.5301,31.6246,2934,2356.17,1516.2,239,232.83,228.65,10471,10609.76,7027.65,18.1,231.38,21,41,180.49,-0.54,1.4,14.46,NA,NA,NA
2018-06-08T19:46:23.000Z,-70.66787666666667,41.508305,2018-06-08T19:43:53.000Z,2018-06-08,19:43:53,NA,"NA",-70.66787666666667,41.508305,NA,NA,1,2018-06-08T19:46:23.000Z,19:46:23,-70.667804,41.508262,5.31,126.69,1,16.4192,31.6348,3526,3251.41,1573.46,244,242.13,229.11,9863,10571.85,7129.01,17.06,234.29,17,87,128.18,-0.43,1.1,15.68,NA,NA,NA
2018-06-08T19:47:23.000Z,-70.66587333333334,41.507776666666665,2018-06-08T19:44:53.000Z,2018-06-08,19:44:53,NA,"NA",-70.66587333333334,41.507776666666665,NA,NA,1,2018-06-08T19:47:23.000Z,19:47:23,-70.66576166666667,41.507755,6.28,101.54,1,16.4,31.6306,3524,3510.1,1636.18,248,245.75,229.66,10379,10550.67,7227.44,18.18,239.18,15,115,105.6,-0.93,1.59,10.14,NA,NA,NA
2018-06-08T19:48:23.000Z,-70.66355,41.50749666666667,2018-06-08T19:45:53.000Z,2018-06-08,19:45:53,NA,"NA",-70.66355,41.50749666666667,NA,NA,1,2018-06-08T19:48:23.000Z,19:48:23,-70.66342533333334,41.507484,6.5,98.08,1,16.3969,31.6296,3430,3553.49,1695.34,247,246.47,230.2,10497,10517.25,7325.67,15.74,232.74,14,110,104.63,-0.48,1.31,13.71,NA,NA,NA
2018-06-08T19:49:23.000Z,-70.66109333333333,41.507305,2018-06-08T19:46:53.000Z,2018-06-08,19:46:53,NA,"NA",-70.66109333333333,41.507305,NA,NA,1,2018-06-08T19:49:23.000Z,19:49:23,-70.66100983333334,41.5072955,6.69,96.13,1,16.3498,31.6249,3548,3482.53,1749.72,248,247.28,230.74,10384,10561.96,7422.57,16.71,236.68,14,108,106.41,-0.44,1.22,16.52,NA,NA,NA
2018-06-08T19:50:23.000Z,-70.65867666666666,41.507125,2018-06-08T19:47:53.000Z,2018-06-08,19:47:53,NA,"NA",-70.65867666666666,41.507125,NA,NA,1,2018-06-08T19:50:23.000Z,19:50:23,-70.65859066666667,41.5071185,6.52,95.61,1,16.2846,31.6296,3451,3437.02,1798.67,249,247.55,231.24,9859,10523.87,7499.54,16.32,240.57,13,110,106,-0.23,1.15,15.68,NA,NA,NA
2018-06-08T19:51:23.000Z,-70.65624833333334,41.50701166666666,2018-06-08T19:48:53.000Z,2018-06-08,19:48:53,NA,"NA",-70.65624833333334,41.50701166666666,NA,NA,1,2018-06-08T19:51:23.000Z,19:51:23,-70.65611933333334,41.50700333333333,6.72,93,1,16.2604,31.6357,3367,3391.51,1844.38,247,247.77,231.73,9675,10461.38,7562.48,15.45,240.7,12,105,106.35,-0.29,1.06,21.67,NA,NA,NA
2018-06-08T19:52:23.000Z,-70.65376833333333,41.50691833333333,2018-06-08T19:49:53.000Z,2018-06-08,19:49:53,NA,"NA",-70.65376833333333,41.50691833333333,NA,NA,1,2018-06-08T19:52:23.000Z,19:52:23,-70.65364216666667,41.50690933333333,6.73,91.61,1,16.2597,31.6347,3391,3363.22,1886.05,247,247.55,232.18,9540,10385.88,7620.67,15.29,238.66,12,107,105.76,-0.61,1.29,21.22,NA,NA,NA
2018-06-08T19:53:23.000Z,-70.651375,41.506748333333334,2018-06-08T19:50:53.000Z,2018-06-08,19:50:53,NA,"NA",-70.651375,41.506748333333334,NA,NA,1,2018-06-08T19:53:23.000Z,19:53:23,-70.65126416666666,41.50672633333333,6.05,108.33,1,16.2552,31.6364,3417,3394.71,1926.35,247,247.42,232.6,9937,10270.23,7673.54,15.59,235.38,14,90,125.25,-0.5,0.33,20.04,NA,NA,NA
2018-06-08T19:54:23.000Z,-70.64914833333333,41.50634,2018-06-08T19:51:53.000Z,2018-06-08,19:51:53,NA,"NA",-70.64914833333333,41.50634,NA,NA,1,2018-06-08T19:54:23.000Z,19:54:23,-70.64902433333333,41.506321666666665,6.38,98.17,1,16.2632,31.6313,3433,3443.14,1966.46,246,247.62,233.01,10296,10188.59,7737.45,16.98,234.36,15,94,118.37,-0.31,1.12,19.41,NA,NA,NA
2018-06-08T19:55:23.000Z,-70.64682166666667,41.50598333333333,2018-06-08T19:52:53.000Z,2018-06-08,19:52:53,NA,"NA",-70.64682166666667,41.50598333333333,NA,NA,1,2018-06-08T19:55:23.000Z,19:55:23,-70.64669966666666,41.50594783333333,6.69,104.81,1,16.3652,31.6201,3547,3525.49,2006.63,251,247.67,233.39,10919,10160.36,7812.37,15.97,231.66,15,81,127.69,-0.69,1.21,19.98,NA,NA,NA
2018-06-08T19:56:23.000Z,-70.644935,41.50518,2018-06-08T19:53:53.000Z,2018-06-08,19:53:53,NA,"NA",-70.644935,41.50518,NA,NA,1,2018-06-08T19:56:23.000Z,19:56:23,-70.64485766666667,41.505133,5.46,134.53,1,16.3669,31.6128,3416,3526.31,2044.16,247,248.32,233.77,11074,10179.58,7890.1,13.07,226.66,17,55,152.91,-0.55,1.21,20.3,NA,NA,NA
2018-06-08T19:57:23.000Z,-70.64277333333334,41.504468333333335,2018-06-08T19:54:54.000Z,2018-06-08,19:54:54,NA,"NA",-70.64277333333334,41.504468333333335,NA,NA,1,2018-06-08T19:57:23.000Z,19:57:23,-70.6426345,41.50444266666667,7.15,103.34,1,16.3654,31.6074,3428,3485.19,2078.93,250,249.58,234.16,10588,10256.96,7964.46,16.54,232.36,15,85,116.56,0.27,0.8,20.2,NA,NA,NA
2018-06-08T19:58:23.000Z,-70.64005333333333,41.504068333333336,2018-06-08T19:55:54.000Z,2018-06-08,19:55:54,NA,"NA",-70.64005333333333,41.504068333333336,NA,NA,1,2018-06-08T19:58:23.000Z,19:58:23,-70.6399075,41.50404433333333,7.54,100.04,1,16.3943,31.6097,3446,3473.41,2111.77,254,251.75,234.59,10596,10298.44,8028.16,15.89,235.03,14,90,115.87,-0.54,0.72,20.29,NA,NA,NA
2018-06-08T19:59:24.000Z,-70.63730166666667,41.503625,2018-06-08T19:56:54.000Z,2018-06-08,19:56:54,NA,"NA",-70.63730166666667,41.503625,NA,NA,1,2018-06-08T19:59:24.000Z,19:59:24,-70.63711216666667,41.503583,7.45,106.48,1,16.4412,31.5985,3379,3404.9,2142.01,254,252.47,235.01,10626,10329.85,8090.93,16.14,232.29,15,86,117.32,-0.32,0.9,19.82,NA,NA,NA
2018-06-08T20:00:24.000Z,-70.63455166666667,41.50316,2018-06-08T19:57:54.000Z,2018-06-08,19:57:54,NA,"NA",-70.63455166666667,41.50316,NA,NA,1,2018-06-08T20:00:24.000Z,20:00:24,-70.63435833333334,41.5031275,7.73,101.68,1,16.47,31.5886,3406,3344.34,2169.48,252,252.93,235.44,10938,10338.6,8148.52,16.5,230.9,15,87,116.12,-0.96,0.81,18.99,NA,NA,NA
2018-06-08T20:01:24.000Z,-70.63183666666667,41.502586666666666,2018-06-08T19:58:54.000Z,2018-06-08,19:58:54,NA,"NA",-70.63183666666667,41.502586666666666,NA,NA,1,2018-06-08T20:01:24.000Z,20:01:24,-70.63165916666667,41.50253816666667,7.49,111.45,1,16.4905,31.5926,3332,3374.08,2195.93,250,250.7,235.77,11456,10444.46,8216.24,15.61,226.11,16,72,126.7,-0.32,0.66,18.75,NA,NA,NA
2018-06-08T20:02:24.000Z,-70.6292,41.50187,2018-06-08T19:59:54.000Z,2018-06-08,19:59:54,NA,"NA",-70.6292,41.50187,NA,NA,1,2018-06-08T20:02:24.000Z,20:02:24,-70.6290185,41.501830166666664,7.58,108.79,1,16.489,31.6026,3301,3323.61,2220.17,250,248.23,236.05,11877,10613.05,8289.25,16.39,230.18,17,80,125.07,-0.47,0.31,19.62,NA,NA,NA
2018-06-08T20:03:24.000Z,-70.62652166666666,41.50116833333333,2018-06-08T20:00:54.000Z,2018-06-08,20:00:54,NA,"NA",-70.62652166666666,41.50116833333333,NA,NA,1,2018-06-08T20:03:24.000Z,20:03:24,-70.62634483333333,41.50112266666667,7.59,110.48,1,16.4962,31.6184,3098,3244.53,2242.09,245,246.78,236.28,12139,10769.02,8354.85,16.53,233.28,16,83,125.95,-0.64,0.73,22.14,NA,NA,NA
2018-06-08T20:04:24.000Z,-70.62384333333333,41.50044333333334,2018-06-08T20:01:54.000Z,2018-06-08,20:01:54,NA,"NA",-70.62384333333333,41.50044333333334,NA,NA,1,2018-06-08T20:04:24.000Z,20:04:24,-70.623671,41.500394166666666,7.47,114.17,1,16.4729,31.6356,3029,3071.61,2259.18,242,244.75,236.46,12267,11003.94,8434.04,17.25,232.67,17,72,135.04,-0.67,0.7,20.98,NA,NA,NA
2018-06-08T20:05:24.000Z,-70.62135333333333,41.49955,2018-06-08T20:02:54.000Z,2018-06-08,20:02:54,NA,"NA",-70.62135333333333,41.49955,NA,NA,1,2018-06-08T20:05:24.000Z,20:05:24,-70.62118383333333,41.49949183333333,7.41,118.16,1,16.4655,31.6434,3061,3037.8,2275.16,241,242.88,236.59,12203,11205.26,8513.35,15.61,239.54,15,76,135.26,-0.33,0.61,22.1,NA,NA,NA
2018-06-08T20:06:24.000Z,-70.61883833333333,41.498705,2018-06-08T20:03:54.000Z,2018-06-08,20:03:54,NA,"NA",-70.61883833333333,41.498705,NA,NA,1,2018-06-08T20:06:24.000Z,20:06:24,-70.61868366666667,41.498652,6.92,115.24,1,16.4737,31.6594,2978,3066.03,2290.83,239,241.5,236.69,12286,11348.07,8587.13,17.13,233.76,17,78,132.09,-0.36,0.89,22.17,NA,NA,NA
2018-06-08T20:07:24.000Z,-70.61646833333333,41.49801166666666,2018-06-08T20:04:54.000Z,2018-06-08,20:04:54,NA,"NA",-70.61646833333333,41.49801166666666,NA,NA,1,2018-06-08T20:07:24.000Z,20:07:24,-70.6163135,41.497971,6.8,110.97,1,16.4464,31.6774,2982,2951.49,2303.87,240,239.87,236.76,12496,11472.71,8659.88,17.13,236.65,16,82,131.28,-0.33,0.92,21.36,NA,NA,NA
2018-06-08T20:08:24.000Z,-70.61416666666666,41.49736333333333,2018-06-08T20:05:54.000Z,2018-06-08,20:05:54,NA,"NA",-70.61416666666666,41.49736333333333,NA,NA,1,2018-06-08T20:08:24.000Z,20:08:24,-70.6140155,41.4973185,6.43,109.87,1,16.4254,31.6712,2917,2929.93,2315.76,236,236.87,236.76,12474,11610.66,8732.97,17.76,234.07,17,82,130.56,-0.29,1.05,20.19,NA,NA,NA
2018-06-08T20:09:24.000Z,-70.61186666666667,41.49670833333333,2018-06-08T20:06:54.000Z,2018-06-08,20:06:54,NA,"NA",-70.61186666666667,41.49670833333333,NA,NA,1,2018-06-08T20:09:24.000Z,20:09:24,-70.61170416666667,41.49666366666667,6.94,110.66,1,16.4059,31.6795,2858,2885.64,2326.37,234,235.62,236.73,12461,11774.73,8803.39,16.48,231.03,16,79,128.56,-0.27,0.42,20.34,NA,NA,NA
2018-06-08T20:10:24.000Z,-70.60938333333333,41.49603,2018-06-08T20:07:54.000Z,2018-06-08,20:07:54,NA,"NA",-70.60938333333333,41.49603,NA,NA,1,2018-06-08T20:10:24.000Z,20:10:24,-70.609214,41.495984666666665,7.36,110.07,1,16.4039,31.6778,2892,2873.73,2336.57,234,233.68,236.68,12454,11932.35,8872.33,17.6,232.32,16,77,128.35,-0.52,0.17,20.84,NA,NA,NA
2018-06-08T20:11:24.000Z,-70.60683,41.49530166666667,2018-06-08T20:08:54.000Z,2018-06-08,20:08:54,NA,"NA",-70.60683,41.49530166666667,NA,NA,1,2018-06-08T20:11:24.000Z,20:11:24,-70.60666866666666,41.49524266666667,7.4,111.39,1,16.41,31.6824,2848,2868.64,2346.31,232,233.57,236.62,12385,12099.05,8936.67,16.62,234.35,16,79,129.1,-0.42,-0.05,21.01,NA,NA,NA
2018-06-08T20:12:24.000Z,-70.60432333333333,41.4945,2018-06-08T20:09:54.000Z,2018-06-08,20:09:54,NA,"NA",-70.60432333333333,41.4945,NA,NA,1,2018-06-08T20:12:24.000Z,20:12:24,-70.60416183333334,41.49444716666667,7.16,114.94,1,16.4174,31.6786,2914,2879.14,2355.73,234,233.43,236.56,12326,12206.82,8997.49,15.8,231.01,16,74,131.82,-0.72,0.84,22.26,NA,NA,NA
2018-06-08T20:13:24.000Z,-70.60194333333334,41.49373166666667,2018-06-08T20:10:54.000Z,2018-06-08,20:10:54,NA,"NA",-70.60194333333334,41.49373166666667,NA,NA,1,2018-06-08T20:13:24.000Z,20:13:24,-70.60178566666667,41.493682166666666,6.91,112.65,1,16.4202,31.6795,2834,2855.59,2364.39,232,233.38,236.5,12386,12276.86,9056.33,17.99,228.08,18,75,131.04,-0.39,0.56,23.07,NA,NA,NA
2018-06-08T20:14:24.000Z,-70.59961666666666,41.49299666666667,2018-06-08T20:11:54.000Z,2018-06-08,20:11:54,NA,"NA",-70.59961666666666,41.49299666666667,NA,NA,1,2018-06-08T20:14:24.000Z,20:14:24,-70.59945433333333,41.49295,6.74,110.97,1,16.4281,31.6836,2861,2861.34,2372.87,233,233.07,236.44,12412,12362.11,9112.61,15.35,231.68,15,83,127.49,-0.35,1.12,23.35,NA,NA,NA
2018-06-08T20:15:24.000Z,-70.59727666666667,41.49229666666667,2018-06-08T20:12:54.000Z,2018-06-08,20:12:54,NA,"NA",-70.59727666666667,41.49229666666667,NA,NA,1,2018-06-08T20:15:24.000Z,20:15:24,-70.5971085,41.49225533333333,6.83,109.98,1,16.4201,31.6777,2997,2970.83,2383.07,230,232.68,236.37,12392,12383,9168.24,15.27,230.61,15,86,124.74,-0.35,0.79,22.75,NA,NA,NA
2018-06-08T20:16:24.000Z,-70.59491833333334,41.491591666666665,2018-06-08T20:13:54.000Z,2018-06-08,20:13:54,NA,"NA",-70.59491833333334,41.491591666666665,NA,NA,1,2018-06-08T20:16:24.000Z,20:16:24,-70.59475116666667,41.491535,7.04,111.29,1,16.4199,31.686,3002,3003.9,2397.89,231,231.65,236.31,12121,12387.75,9237.26,14.01,240,13,86,124.71,-0.66,0.88,20.94,NA,NA,NA
2018-06-08T20:17:24.000Z,-70.592535,41.490838333333336,2018-06-08T20:14:54.000Z,2018-06-08,20:14:54,NA,"NA",-70.592535,41.490838333333336,NA,NA,1,2018-06-08T20:17:24.000Z,20:17:24,-70.59237283333333,41.490778,7.01,114.89,1,16.4091,31.6848,3056,3058.31,2432.11,233,231.8,236.33,12178,12387.81,9364.43,11.25,231.78,12,67,131.57,-0.59,0.75,18.15,NA,NA,NA
2018-06-08T20:18:24.000Z,-70.590265,41.48996,2018-06-08T20:15:54.000Z,2018-06-08,20:15:54,NA,"NA",-70.590265,41.48996,NA,NA,1,2018-06-08T20:18:24.000Z,20:18:24,-70.59010316666667,41.489901833333334,6.82,117.07,1,16.3824,31.6796,2974,3019.76,2465.49,230,231.73,236.4,12117,12375.46,9490.9,11.15,232.97,11,65,130.54,-0.52,0.85,20.07,NA,NA,NA
2018-06-08T20:19:24.000Z,-70.58805666666666,41.48907333333333,2018-06-08T20:16:54.000Z,2018-06-08,20:16:54,NA,"NA",-70.58805666666666,41.48907333333333,NA,NA,1,2018-06-08T20:19:24.000Z,20:19:24,-70.58791,41.48901033333333,6.55,121.79,1,16.3618,31.6798,2972,2989.71,2499.01,232,230.32,236.48,11991,12338.87,9615.52,11.46,237.46,12,71,137.03,-0.19,0.92,20.41,NA,NA,NA
2018-06-08T20:20:24.000Z,-70.586045,41.488095,2018-06-08T20:17:54.000Z,2018-06-08,20:17:54,NA,"NA",-70.586045,41.488095,NA,NA,1,2018-06-08T20:20:24.000Z,20:20:24,-70.585903,41.4880285,6.35,125.89,1,16.3518,31.6754,2986,2949.24,2531.39,229,230.15,236.59,12093,12291.42,9738.11,11.05,236.68,12,57,140.92,-0.4,1.32,21.24,NA,NA,NA
2018-06-08T20:21:24.000Z,-70.584205,41.487035,2018-06-08T20:18:54.000Z,2018-06-08,20:18:54,NA,"NA",-70.584205,41.487035,NA,NA,1,2018-06-08T20:21:24.000Z,20:21:24,-70.58409616666667,41.486962166666665,5.93,136.52,1,16.3434,31.6781,2942,2943.63,2564.16,229,230.27,236.71,12012,12249.58,9863.57,12.08,232,14,43,152.55,-0.94,0.59,20.66,NA,NA,NA
2018-06-08T20:22:24.000Z,-70.58272666666667,41.485861666666665,2018-06-08T20:19:54.000Z,2018-06-08,20:19:54,NA,"NA",-70.58272666666667,41.485861666666665,NA,NA,1,2018-06-08T20:22:24.000Z,20:22:24,-70.58264133333333,41.485783833333336,5.31,145.22,1,16.3452,31.6784,2956,2929.92,2596.04,229,229.82,236.81,11910,12206.74,9985.89,13.3,213.41,17,24,176.85,-0.4,1.19,18.6,NA,NA,NA
2018-06-08T20:23:24.000Z,-70.58204333333333,41.484678333333335,2018-06-08T20:20:54.000Z,2018-06-08,20:20:54,NA,"NA",-70.58204333333333,41.484678333333335,NA,NA,1,2018-06-08T20:23:24.000Z,20:23:24,-70.582011,41.484609,4.1,165.04,1,16.3803,31.6789,2882,2915.12,2628.34,229,229.58,236.91,11744,12158.95,10105.86,13.36,214.05,17,19,198.82,-0.66,1.16,17.5,NA,NA,NA
2018-06-08T20:24:24.000Z,-70.58205166666667,41.48365,2018-06-08T20:21:54.000Z,2018-06-08,20:21:54,NA,"NA",-70.58205166666667,41.48365,NA,NA,1,2018-06-08T20:24:24.000Z,20:24:24,-70.58205466666666,41.48358783333333,3.63,190.44,1,16.6415,31.6488,2744,2789.59,2657.98,229,228.38,236.99,11877,12103.37,10224.37,13.58,225.04,17,16,205.33,-0.24,1.5,0,NA,NA,NA
2018-06-08T20:25:24.000Z,-70.58206833333334,41.48256833333333,2018-06-08T20:22:54.000Z,2018-06-08,20:22:54,NA,"NA",-70.58206833333334,41.48256833333333,NA,NA,1,2018-06-08T20:25:24.000Z,20:25:24,-70.582047,41.482496,4.28,173.94,1,16.7372,31.6372,2665,2656.68,2685.5,228,228.72,237.08,11864,12059.87,10344.48,10.09,213.95,14,20,187.57,-0.12,1.76,13.75,NA,NA,NA
2018-06-08T20:26:24.000Z,-70.58192666666666,41.48137,2018-06-08T20:23:54.000Z,2018-06-08,20:23:54,NA,"NA",-70.58192666666666,41.48137,NA,NA,1,2018-06-08T20:26:24.000Z,20:26:24,-70.58191083333334,41.481299,4.37,174.01,1,16.7259,31.6446,2658,2628.27,2712.55,227,228.37,237.16,11798,12007.68,10464.29,11.67,237.3,15,40,184.96,-0.4,1.35,13.35,NA,NA,NA
2018-06-08T20:27:24.000Z,-70.58185833333333,41.480151666666664,2018-06-08T20:24:54.000Z,2018-06-08,20:24:54,NA,"NA",-70.58185833333333,41.480151666666664,NA,NA,1,2018-06-08T20:27:24.000Z,20:27:24,-70.58184683333333,41.480077,4.4,176.51,1,16.7063,31.6411,2700,2654.68,2740.9,218,221.37,237.11,11768,11956.03,10584.66,13.98,220.86,18,33,181.39,-0.51,1.31,12.59,NA,NA,NA
2018-06-08T20:28:24.000Z,-70.58178833333334,41.478971666666666,2018-06-08T20:25:54.000Z,2018-06-08,20:25:54,NA,"NA",-70.58178833333334,41.478971666666666,NA,NA,1,2018-06-08T20:28:24.000Z,20:28:24,-70.58178283333334,41.478900333333335,4.04,180.12,1,16.8308,31.625,2566,2619.12,2767.7,218,217.7,237.02,11885,11919.95,10705.62,12.45,231.41,16,45,179.32,-0.5,1.21,13.42,NA,NA,NA
2018-06-08T20:29:24.000Z,-70.58178,41.47788166666667,2018-06-08T20:26:54.000Z,2018-06-08,20:26:54,NA,"NA",-70.58178,41.47788166666667,NA,NA,1,2018-06-08T20:29:24.000Z,20:29:24,-70.581778,41.477819,3.71,182.05,1,16.7391,31.64,2763,2653.86,2795.23,215,218.22,236.92,11717,11885.7,10824.3,13.46,220.21,17,34,181.06,-0.53,1.45,10.59,NA,NA,NA
2018-06-08T20:30:24.000Z,-70.58195333333333,41.476888333333335,2018-06-08T20:27:54.000Z,2018-06-08,20:27:54,NA,"NA",-70.58195333333333,41.476888333333335,NA,NA,1,2018-06-08T20:30:24.000Z,20:30:24,-70.581964,41.47684683333333,3.58,194.75,1,16.671,31.6542,2811,2783.95,2824.72,218,218.2,236.83,11677,11849.77,10940.71,12.61,226.99,16,26,192.55,-0.74,1.62,9.91,NA,NA,NA
2018-06-08T20:31:24.000Z,-70.582315,41.475966666666665,2018-06-08T20:28:54.000Z,2018-06-08,20:28:54,NA,"NA",-70.582315,41.475966666666665,NA,NA,1,2018-06-08T20:31:24.000Z,20:31:24,-70.58232783333334,41.47592733333333,3.36,196.08,1,16.6665,31.6528,2706,2750.64,2854.31,217,218.22,236.74,11751,11827.97,11057.63,13.53,220.71,17,25,193.32,-0.54,1.65,8,NA,NA,NA
2018-06-08T20:32:24.000Z,-70.58271,41.47506333333333,2018-06-08T20:29:54.000Z,2018-06-08,20:29:54,NA,"NA",-70.58271,41.47506333333333,NA,NA,1,2018-06-08T20:32:24.000Z,20:32:24,-70.58271466666666,41.475026166666666,3.36,197.39,1,16.6095,31.6626,2738,2757.25,2883.87,216,217.77,236.64,11859,11806.84,11175.85,10.73,230.07,14,34,191.8,-0.27,1.58,7.78,NA,NA,NA
2018-06-08T20:33:24.000Z,-70.5831,41.47416833333333,2018-06-08T20:30:54.000Z,2018-06-08,20:30:54,NA,"NA",-70.5831,41.47416833333333,NA,NA,1,2018-06-08T20:33:24.000Z,20:33:24,-70.58311366666666,41.474134,3.36,199.41,1,16.6266,31.6562,2724,2739.37,2893.16,213,217.32,235.53,11923,11797.94,11315.05,11.64,225.37,15,26,192.01,-0.66,1.51,6.72,NA,NA,NA
2018-06-08T20:34:24.000Z,-70.58346666666667,41.473283333333335,2018-06-08T20:31:54.000Z,2018-06-08,20:31:54,NA,"NA",-70.58346666666667,41.473283333333335,NA,NA,1,2018-06-08T20:34:24.000Z,20:34:24,-70.58348233333334,41.47324733333333,3.38,195.57,1,16.6643,31.6477,2710,2715.51,2901.73,213,216.72,235.19,12042,11810.71,11346.91,9.98,238.97,13,40,191.31,-0.27,1.61,5.81,NA,NA,NA
2018-06-08T20:35:24.000Z,-70.58382333333333,41.47237666666667,2018-06-08T20:32:54.000Z,2018-06-08,20:32:54,NA,"NA",-70.58382333333333,41.47237666666667,NA,NA,1,2018-06-08T20:35:24.000Z,20:35:24,-70.58383466666666,41.47233683333333,3.49,196.83,1,16.6955,31.6454,2650,2663.19,2909.17,217,216.87,234.94,12065,11836.2,11372.22,9.94,241.49,12,19,193.04,-0.26,1.02,5.82,NA,NA,NA
2018-06-08T20:36:24.000Z,-70.58422333333333,41.471455,2018-06-08T20:33:54.000Z,2018-06-08,20:33:54,NA,"NA",-70.58422333333333,41.471455,NA,NA,1,2018-06-08T20:36:24.000Z,20:36:24,-70.58424233333334,41.47141466666667,3.56,197.22,1,16.7177,31.6479,2566,2612.61,2916.61,215,216.37,234.71,12024,11852.85,11398.51,10.42,221.41,14,30,192.36,-0.27,1.61,5.72,NA,NA,NA
2018-06-08T20:37:24.000Z,-70.584625,41.470506666666665,2018-06-08T20:34:54.000Z,2018-06-08,20:34:54,NA,"NA",-70.584625,41.470506666666665,NA,NA,1,2018-06-08T20:37:24.000Z,20:37:24,-70.5846425,41.470467166666666,3.51,198.45,1,16.745,31.6488,2603,2576.41,2922.75,211,216.38,234.48,12015,11869.89,11419.55,10.48,228.36,14,36,190.66,-0.34,1.55,5.02,NA,NA,NA
2018-06-08T20:38:24.000Z,-70.58487,41.46976166666666,2018-06-08T20:35:54.000Z,2018-06-08,20:35:54,NA,"NA",-70.58487,41.46976166666666,NA,NA,1,2018-06-08T20:38:24.000Z,20:38:24,-70.58487066666666,41.469739,1.94,200.76,1,16.7682,31.6511,2549,2554.54,2927.68,216,214.98,234.23,12058,11895.51,11454.28,13.89,230.03,16,25,201.6,-0.41,1.53,5.43,NA,NA,NA
2018-06-08T20:39:24.000Z,-70.58523166666667,41.469316666666664,2018-06-08T20:36:54.000Z,2018-06-08,20:36:54,NA,"NA",-70.58523166666667,41.469316666666664,NA,NA,1,2018-06-08T20:39:24.000Z,20:39:24,-70.5852465,41.46930033333334,2.28,217.87,1,16.8747,31.6369,2353,2486.32,2931.59,213,214.82,233.99,12160,11922.83,11481.15,9.86,212.36,12,15,201.75,-0.36,1.75,5.38,NA,NA,NA
2018-06-08T20:40:24.000Z,-70.585545,41.468923333333336,2018-06-08T20:37:54.000Z,2018-06-08,20:37:54,NA,"NA",-70.585545,41.468923333333336,NA,NA,1,2018-06-08T20:40:24.000Z,20:40:24,-70.58554516666666,41.468912333333336,1.42,192.75,1,16.9343,31.6304,2192,2259.39,2933.09,219,214.67,233.75,12202,11955.79,11510.35,10.71,210.71,12,34,179.38,-0.41,1.56,6.05,NA,NA,NA
2018-06-08T20:41:24.000Z,-70.585575,41.46854666666667,2018-06-08T20:38:54.000Z,2018-06-08,20:38:54,NA,"NA",-70.585575,41.46854666666667,NA,NA,1,2018-06-08T20:41:24.000Z,20:41:24,-70.5855665,41.46853333333333,1.53,185.89,1,16.9352,31.6302,2195,2230.93,2935.16,215,215.2,233.52,12221,12002.59,11538.71,11.7,217.32,13,41,175.74,-0.39,1.5,5.2,NA,NA,NA
2018-06-08T20:42:24.000Z,-70.58549,41.468035,2018-06-08T20:39:54.000Z,2018-06-08,20:39:54,NA,"NA",-70.58549,41.468035,NA,NA,1,2018-06-08T20:42:24.000Z,20:42:24,-70.5854735,41.468012,2.2,165.76,1,16.9581,31.6295,2178,2222.12,2937.8,211,214.88,233.3,12152,12047.18,11561.16,9.68,236.05,10,68,169.13,-0.57,1.36,4.94,NA,NA,NA
2018-06-08T20:43:24.000Z,-70.58531833333333,41.467395,2018-06-08T20:40:54.000Z,2018-06-08,20:40:54,NA,"NA",-70.58531833333333,41.467395,NA,NA,1,2018-06-08T20:43:24.000Z,20:43:24,-70.58530133333333,41.4673645,2.47,166.17,1,17.2069,31.5651,2078,2116.78,2940.15,217,214.05,233.06,12212,12086.2,11582.08,11.09,226.94,13,47,171.26,-0.23,1.37,5.19,NA,NA,NA
2018-06-08T20:44:24.000Z,-70.58521666666667,41.466795,2018-06-08T20:41:54.000Z,2018-06-08,20:41:54,NA,"NA",-70.58521666666667,41.466795,NA,NA,1,2018-06-08T20:44:24.000Z,20:44:24,-70.58520766666666,41.466779333333335,1.63,181.73,1,17.3772,31.5177,2059,2041.95,2941.1,210,214.88,232.83,12221,12119.32,11602.49,10.45,221.18,12,34,180.65,-0.45,1.67,5.16,NA,NA,NA
2018-06-08T20:45:24.000Z,-70.58517833333333,41.466388333333335,2018-06-08T20:42:54.000Z,2018-06-08,20:42:54,NA,"NA",-70.58517833333333,41.466388333333335,NA,NA,1,2018-06-08T20:45:24.000Z,20:45:24,-70.58516283333333,41.46636616666667,1.98,161.94,1,17.5056,31.4828,2079,2046.58,2935.86,216,215.93,232.55,12221,12141.84,11627.28,11.43,215.46,14,33,176.33,-0.12,1.42,5.06,NA,NA,NA
2018-06-08T20:46:24.000Z,-70.58511166666666,41.46588666666667,2018-06-08T20:43:54.000Z,2018-06-08,20:43:54,NA,"NA",-70.58511166666666,41.46588666666667,NA,NA,1,2018-06-08T20:46:24.000Z,20:46:24,-70.58510066666666,41.46586766666667,1.31,178.12,1,17.5898,31.4566,2128,2105,2916.81,220,216.97,232.14,12145,12152.18,11661.42,8.85,231.26,11,40,182.37,-0.3,1.4,5.01,NA,NA,NA
2018-06-08T20:47:24.000Z,-70.58508333333333,41.465536666666665,2018-06-08T20:44:54.000Z,2018-06-08,20:44:54,NA,"NA",-70.58508333333333,41.465536666666665,NA,NA,1,2018-06-08T20:47:24.000Z,20:47:24,-70.5850715,41.46552283333333,1.27,175.48,1,17.6161,31.4492,2156,2125.07,2893.72,214,216.67,231.65,12140,12160.91,11693.52,10.93,223.38,12,30,187.84,-0.18,1.4,4.99,NA,NA,NA
2018-06-08T20:48:24.000Z,-70.58508,41.465375,2018-06-08T20:45:54.000Z,2018-06-08,20:45:54,NA,"NA",-70.58508,41.465375,NA,NA,1,2018-06-08T20:48:24.000Z,20:48:24,-70.58507483333334,41.46538266666666,0.22,336.18,1,17.6313,31.4485,2155,2139.61,2869.58,218,218.15,231.17,12131,12170.37,11723.24,9.72,223.61,12,29,186.85,-0.04,1.48,5.31,NA,NA,NA
2018-06-08T20:49:24.000Z,-70.58516833333333,41.465465,2018-06-08T20:46:54.000Z,2018-06-08,20:46:54,NA,"NA",-70.58516833333333,41.465465,NA,NA,1,2018-06-08T20:49:24.000Z,20:49:24,-70.58515633333333,41.4654715,0.33,26.55,1,17.4782,31.4894,2476,2314.93,2850.29,218,221.33,230.74,12138,12175.2,11750,11.14,235.37,11,74,162.32,-0.47,1.32,10.04,NA,NA,NA
2018-06-08T20:50:24.000Z,-70.58512,41.465493333333335,2018-06-08T20:47:54.000Z,2018-06-08,20:47:54,NA,"NA",-70.58512,41.465493333333335,NA,NA,1,2018-06-08T20:50:24.000Z,20:50:24,-70.58510983333333,41.465496,0.09,285.81,1,17.4992,31.4765,2449,2451.66,2834.01,217,216.92,230.23,12163,12176.31,11784.74,12.1,231.14,12,59,172.14,-0.34,1.17,5.04,NA,NA,NA
2018-06-08T20:51:24.000Z,-70.58502833333333,41.465405,2018-06-08T20:48:54.000Z,2018-06-08,20:48:54,NA,"NA",-70.58502833333333,41.465405,NA,NA,1,2018-06-08T20:51:24.000Z,20:51:24,-70.58500733333334,41.4654015,0.71,147.16,1,17.5205,31.4695,2476,2464.66,2818.69,211,215.85,229.7,12140,12173.57,11824.34,10.62,220.79,12,41,173.05,-0.29,1.32,4.98,NA,NA,NA
2018-06-08T20:52:24.000Z,-70.584975,41.465311666666665,2018-06-08T20:49:54.000Z,2018-06-08,20:49:54,NA,"NA",-70.584975,41.465311666666665,NA,NA,1,2018-06-08T20:52:24.000Z,20:52:24,-70.5849555,41.4653,0.1,203.69,1,17.5389,31.4697,2385,2466.75,2803.87,214,215.6,229.17,12138,12165.56,11864.85,9.84,216.1,11,40,171.19,-0.3,1.7,5.37,NA,NA,NA
2018-06-08T20:53:24.000Z,-70.58497166666666,41.465333333333334,2018-06-08T20:50:54.000Z,2018-06-08,20:50:54,NA,"NA",-70.58497166666666,41.465333333333334,NA,NA,1,2018-06-08T20:53:24.000Z,20:53:24,-70.58495766666667,41.4653295,0.23,338.5,1,17.5966,31.4592,2508,2451.92,2787.99,212,215.65,228.64,12131,12158.47,11907.15,10.16,213.15,11,59,161.23,-0.35,1.67,5,NA,NA,NA
2018-06-08T20:54:24.000Z,-70.58501333333334,41.465415,2018-06-08T20:51:54.000Z,2018-06-08,20:51:54,NA,"NA",-70.58501333333334,41.465415,NA,NA,1,2018-06-08T20:54:24.000Z,20:54:24,-70.58500433333333,41.4654155,0.29,348.26,1,17.5776,31.473,2500,2489.42,2771.92,212,214.83,228.08,12090,12147.18,11941.26,10.24,226.83,10,80,148.65,-0.34,1.66,5.28,NA,NA,NA
2018-06-08T20:55:24.000Z,-70.58503666666667,41.46554166666667,2018-06-08T20:52:54.000Z,2018-06-08,20:52:54,NA,"NA",-70.58503666666667,41.46554166666667,NA,NA,1,2018-06-08T20:55:24.000Z,20:55:24,-70.58501783333334,41.4655475,0.31,358.79,1,17.5166,31.4872,2457,2452.8,2754.14,222,215.1,227.54,12128,12136.25,11965.44,10.47,210.44,10,52,161.42,-0.37,1.33,5.41,NA,NA,NA
2018-06-08T20:56:24.000Z,-70.58499,41.46561333333333,2018-06-08T20:53:54.000Z,2018-06-08,20:53:54,NA,"NA",-70.58499,41.46561333333333,NA,NA,1,2018-06-08T20:56:24.000Z,20:56:24,-70.58497116666666,41.46561333333333,0.04,0,1,17.4001,31.5169,2362,2429.46,2735.99,216,215.6,227,12196,12128.98,11985.26,9.1,228.39,9,33,189.26,-0.3,1.7,4.99,NA,NA,NA
2018-06-08T20:57:24.000Z,-70.58501166666667,41.465633333333336,2018-06-08T20:54:54.000Z,2018-06-08,20:54:54,NA,"NA",-70.58501166666667,41.465633333333336,NA,NA,1,2018-06-08T20:57:24.000Z,20:57:24,-70.58499983333333,41.46563966666667,0.19,322.04,1,17.3004,31.5314,2389,2412.46,2717.93,218,216.53,226.45,12099,12129.55,12005.23,10.16,220.33,10,39,181.03,-0.31,1.93,4.98,NA,NA,NA
2018-06-08T20:58:24.000Z,-70.58510666666666,41.46570166666667,2018-06-08T20:55:54.000Z,2018-06-08,20:55:54,NA,"NA",-70.58510666666666,41.46570166666667,NA,NA,1,2018-06-08T20:58:24.000Z,20:58:24,-70.585092,41.4656945,0.32,292.27,1,17.3198,31.5255,2466,2487.73,2701.63,215,217.72,225.88,12113,12130.04,12029.51,9.95,234.53,10,85,154.27,-0.34,1.5,5.06,NA,NA,NA
2018-06-08T20:59:24.000Z,-70.585175,41.4657,2018-06-08T20:56:54.000Z,2018-06-08,20:56:54,NA,"NA",-70.585175,41.4657,NA,NA,1,2018-06-08T20:59:24.000Z,20:59:24,-70.58516116666667,41.465688166666666,0.02,0,1,17.3535,31.5199,2506,2470.24,2685.92,220,218.7,225.31,12130,12128.52,12052.77,12.94,220.76,13,100,121.11,-0.15,1.32,5.01,NA,NA,NA
2018-06-08T21:00:24.000Z,-70.58503333333333,41.46572166666667,2018-06-08T20:57:54.000Z,2018-06-08,20:57:54,NA,"NA",-70.58503333333333,41.46572166666667,NA,NA,1,2018-06-08T21:00:24.000Z,21:00:24,-70.5850095,41.465725666666664,0.55,89.08,1,17.4511,31.4908,2436,2469.1,2671.43,224,221.82,224.79,12090,12129.67,12077.97,16.44,230.41,16,93,139.98,-0.17,1.02,4.98,NA,NA,NA
2018-06-08T21:01:24.000Z,-70.58485333333333,41.46570333333333,2018-06-08T20:58:54.000Z,2018-06-08,20:58:54,NA,"NA",-70.58485333333333,41.46570333333333,NA,NA,1,2018-06-08T21:01:24.000Z,21:01:24,-70.5848265,41.46570633333333,0.45,106.86,1,17.4703,31.4878,2478,2442,2655.77,221,225.23,224.37,12184,12130.72,12093.52,15.3,246.11,16,84,160.6,-0.25,1.01,4.97,NA,NA,NA
2018-06-08T21:02:24.000Z,-70.584705,41.46568166666667,2018-06-08T20:59:54.000Z,2018-06-08,20:59:54,NA,"NA",-70.584705,41.46568166666667,NA,NA,1,2018-06-08T21:02:24.000Z,21:02:24,-70.58469033333333,41.4656845,0.3,94.46,1,17.5526,31.4645,2412,2472.37,2641.69,227,227.97,224.04,12164,12133.29,12103.01,11.2,246.25,11,59,181.1,-0.2,1.65,4.97,NA,NA,NA
2018-06-08T21:03:25.000Z,-70.58461,41.46571,2018-06-08T21:00:54.000Z,2018-06-08,21:00:54,NA,"NA",-70.58461,41.46571,NA,NA,1,2018-06-08T21:03:25.000Z,21:03:25,-70.58459183333333,41.46571566666667,0.37,72.55,1,17.5878,31.4628,2428,2458.61,2628.71,226,228.93,223.74,12138,12136.33,12115.42,12.26,233.08,12,37,195.38,-0.29,1.81,4.97,NA,NA,NA
2018-06-08T21:04:25.000Z,-70.58451333333333,41.46571,2018-06-08T21:01:54.000Z,2018-06-08,21:01:54,NA,"NA",-70.58451333333333,41.46571,NA,NA,1,2018-06-08T21:04:25.000Z,21:04:25,-70.58449866666666,41.46570916666667,0.13,118.94,1,17.5757,31.4768,2413,2435.27,2618.19,228,228.28,223.46,12129,12136.31,12114.66,13.12,243.17,11,22,219.68,-0.28,2.26,4.97,NA,NA,NA
2018-06-08T21:05:25.000Z,-70.58450666666667,41.465696666666666,2018-06-08T21:02:54.000Z,2018-06-08,21:02:54,NA,"NA",-70.58450666666667,41.465696666666666,NA,NA,1,2018-06-08T21:05:25.000Z,21:05:25,-70.58449133333333,41.46570116666667,0.05,336.4,1,17.4579,31.499,2469,2448.46,2608.11,226,228.73,223.23,12147,12139.2,12112.18,12.04,244.9,12,22,222.47,-0.13,2.03,4.97,NA,NA,NA
2018-06-08T21:06:25.000Z,-70.58452,41.46570166666667,2018-06-08T21:03:54.000Z,2018-06-08,21:03:54,NA,"NA",-70.58452,41.46570166666667,NA,NA,1,2018-06-08T21:06:25.000Z,21:06:25,-70.58450483333333,41.465705166666666,0.05,33.76,1,17.4111,31.5068,2491,2503.53,2598.79,228,229.13,223.02,12117,12139.91,12110.5,15.08,238.47,14,19,218.22,-0.2,1.53,4.97,NA,NA,NA
2018-06-08T21:07:25.000Z,-70.58451,41.46572,2018-06-08T21:04:54.000Z,2018-06-08,21:04:54,NA,"NA",-70.58451,41.46572,NA,NA,1,2018-06-08T21:07:25.000Z,21:07:25,-70.58450466666666,41.46571933333333,0.08,219.65,1,17.3789,31.5185,2512,2496.53,2591.27,225,229.62,222.85,12082,12137.62,12107.07,11,236.27,12,18,216.27,-0.25,1.55,4.97,NA,NA,NA
2018-06-08T21:08:25.000Z,-70.58451166666667,41.46572166666667,2018-06-08T21:05:54.000Z,2018-06-08,21:05:54,NA,"NA",-70.58451166666667,41.46572166666667,NA,NA,1,2018-06-08T21:08:25.000Z,21:08:25,-70.58451566666666,41.46572583333333,0.04,8.5,1,17.3756,31.5159,2571,2485.46,2583.92,229,228.72,222.71,12112,12133.03,12100.78,14.1,239.02,14,24,213.09,0.01,2.25,4.97,NA,NA,NA
2018-06-08T21:09:25.000Z,-70.58454166666667,41.46572166666667,2018-06-08T21:06:54.000Z,2018-06-08,21:06:54,NA,"NA",-70.58454166666667,41.46572166666667,NA,NA,1,2018-06-08T21:09:25.000Z,21:09:25,-70.58453366666667,41.46572783333333,0.01,0,1,17.3472,31.523,2479,2494.66,2577.47,229,228.5,222.6,12123,12130.62,12094.61,13.06,217.62,13,15,207.96,-0.1,2.11,4.97,NA,NA,NA
2018-06-08T21:10:25.000Z,-70.58453666666666,41.46573166666667,2018-06-08T21:07:54.000Z,2018-06-08,21:07:54,NA,"NA",-70.58453666666666,41.46573166666667,NA,NA,1,2018-06-08T21:10:25.000Z,21:10:25,-70.58452766666667,41.46573583333333,0.04,335.27,1,17.3838,31.5142,2481,2499.93,2571.07,229,228.45,222.51,12105,12127.46,12087.65,17.05,243.24,17,33,210.52,-0.12,1.7,4.97,NA,NA,NA
2018-06-08T21:11:25.000Z,-70.58454833333333,41.46572833333333,2018-06-08T21:08:55.000Z,2018-06-08,21:08:55,NA,"NA",-70.58454833333333,41.46572833333333,NA,NA,1,2018-06-08T21:11:25.000Z,21:11:25,-70.58453883333334,41.465731,0.09,196.24,1,17.3667,31.519,2511,2506.42,2565.08,224,225.75,222.38,12092,12125.71,12082.09,13,241.18,13,36,203.94,0.01,1.51,4.97,NA,NA,NA
2018-06-08T21:12:25.000Z,-70.58454,41.46570666666667,2018-06-08T21:09:55.000Z,2018-06-08,21:09:55,NA,"NA",-70.58454,41.46570666666667,NA,NA,1,2018-06-08T21:12:25.000Z,21:12:25,-70.584532,41.4657145,0.14,134.23,1,17.408,31.508,2540,2492.76,2558.67,226,225.77,222.25,12102,12122.51,12078.08,11.9,231.61,12,30,198.78,0.07,1.78,4.97,NA,NA,NA
2018-06-08T21:13:25.000Z,-70.58450166666667,41.465693333333334,2018-06-08T21:10:55.000Z,2018-06-08,21:10:55,NA,"NA",-70.58450166666667,41.465693333333334,NA,NA,1,2018-06-08T21:13:25.000Z,21:13:25,-70.58449416666667,41.46570083333334,0.15,72.5,1,17.4054,31.5088,2465,2490.51,2552.62,224,224.98,222.12,12095,12116.76,12073.61,13.97,234.05,14,34,204.78,0.01,1.99,4.97,NA,NA,NA
2018-06-08T21:14:25.000Z,-70.584460000000007,41.46568833333333,2018-06-08T21:11:55.000Z,2018-06-08,21:11:55,NA,"NA",-70.584460000000007,41.46568833333333,NA,NA,1,2018-06-08T21:14:25.000Z,21:14:25,-70.584447,41.465693,0.1,122.35,1,17.3477,31.5236,2630,2531.29,2547.07,228,224.47,221.98,12071,12110.44,12069.22,15.02,225.36,15,14,217.11,-0.2,2.1,4.97,NA,NA,NA
2018-06-08T21:15:25.000Z,-70.58445333333333,41.465685,2018-06-08T21:12:55.000Z,2018-06-08,21:12:55,NA,"NA",-70.58445333333333,41.465685,NA,NA,1,2018-06-08T21:15:25.000Z,21:15:25,-70.58444466666667,41.46569,0.08,232.79,1,17.1898,31.5593,2643,2604.37,2540.86,235,228.03,221.9,12038,12102.34,12063.03,12.05,242.95,15,24,218.53,0.03,1.9,4.97,NA,NA,NA
2018-06-08T21:16:25.000Z,-70.58447166666667,41.46570666666667,2018-06-08T21:13:55.000Z,2018-06-08,21:13:55,NA,"NA",-70.58447166666667,41.46570666666667,NA,NA,1,2018-06-08T21:16:25.000Z,21:16:25,-70.58445883333333,41.46569916666667,0.06,103.76,1,17.2992,31.5307,2625,2631.34,2534.69,230,228.68,221.85,12059,12094.33,12058.11,14,235.39,14,27,212.4,0.13,2.12,4.97,NA,NA,NA
2018-06-08T21:17:25.000Z,-70.584465,41.465696666666666,2018-06-08T21:14:55.000Z,2018-06-08,21:14:55,NA,"NA",-70.584465,41.465696666666666,NA,NA,1,2018-06-08T21:17:25.000Z,21:17:25,-70.58445783333333,41.465702,0.03,0,1,17.3702,31.515,2554,2589.54,2526.91,227,228.43,221.8,12082,12087.91,12055.37,14,242.58,14,28,212.6,-0.05,2,4.97,NA,NA,NA
2018-06-08T21:18:25.000Z,-70.58447166666667,41.465693333333334,2018-06-08T21:15:55.000Z,2018-06-08,21:15:55,NA,"NA",-70.58447166666667,41.465693333333334,NA,NA,1,2018-06-08T21:18:25.000Z,21:18:25,-70.58446133333334,41.465698333333336,0.06,255.69,1,17.401,31.5056,2547,2570.64,2519.37,231,227.83,221.73,12108,12084.12,12053.57,15,239.26,14,33,209.14,0.11,1.87,4.97,NA,NA,NA
2018-06-08T21:19:25.000Z,-70.58446333333333,41.465685,2018-06-08T21:16:55.000Z,2018-06-08,21:16:55,NA,"NA",-70.58446333333333,41.465685,NA,NA,1,2018-06-08T21:19:25.000Z,21:19:25,-70.584459,41.465679333333334,0.03,0,1,17.3716,31.5161,2589,2609.12,2513.09,228,228.48,221.7,12038,12080.07,12053.29,12.97,238.32,14,31,205.91,-0.18,2.03,4.97,NA,NA,NA
2018-06-08T21:20:25.000Z,-70.58443,41.46566166666667,2018-06-08T21:17:55.000Z,2018-06-08,21:17:55,NA,"NA",-70.58443,41.46566166666667,NA,NA,1,2018-06-08T21:20:25.000Z,21:20:25,-70.58442566666666,41.465661833333336,0.08,78.83,1,17.4142,31.503,2602,2581.32,2507,218,226.65,221.65,12078,12073.84,12054.61,15,244.91,15,30,209.52,-0.13,1.85,4.97,NA,NA,NA
2018-06-08T21:21:25.000Z,-70.584405,41.465628333333335,2018-06-08T21:18:55.000Z,2018-06-08,21:18:55,NA,"NA",-70.584405,41.465628333333335,NA,NA,1,2018-06-08T21:21:25.000Z,21:21:25,-70.58439,41.465636,0.15,135.46,1,17.452,31.4973,2576,2581,2500.9,225,223.57,221.53,12096,12074.92,12055.84,13,242.69,13,27,215.25,-0.27,2.28,4.97,NA,NA,NA
2018-06-08T21:22:25.000Z,-70.58436,41.46561666666667,2018-06-08T21:19:55.000Z,2018-06-08,21:19:55,NA,"NA",-70.58436,41.46561666666667,NA,NA,1,2018-06-08T21:22:25.000Z,21:22:25,-70.5843475,41.46561783333333,0.05,160.13,1,17.4348,31.5025,2493,2567.29,2494.9,219,220.13,221.37,12060,12073.68,12057.8,12.02,237.77,12,11,228.34,-0.28,2.11,4.97,NA,NA,NA
2018-06-08T21:23:25.000Z,-70.58437666666667,41.46561166666667,2018-06-08T21:20:55.000Z,2018-06-08,21:20:55,NA,"NA",-70.58437666666667,41.46561166666667,NA,NA,1,2018-06-08T21:23:25.000Z,21:23:25,-70.5843675,41.4656195,0.18,353.42,1,17.3209,31.5318,2541,2584.92,2489.34,220,220.87,221.23,12039,12068.68,12061.69,11.9,235.93,13,7,224.57,-0.25,1.89,4.97,NA,NA,NA
2018-06-08T21:24:25.000Z,-70.58438666666666,41.465608333333336,2018-06-08T21:21:55.000Z,2018-06-08,21:21:55,NA,"NA",-70.58438666666666,41.465608333333336,NA,NA,1,2018-06-08T21:24:25.000Z,21:24:25,-70.5843715,41.4656225,0.04,164.3,1,17.2931,31.5369,2557,2578,2485.88,215,216.98,221.04,12085,12064.63,12066.65,13.91,237.23,14,8,226.5,-0.22,2.24,4.97,NA,NA,NA
2018-06-08T21:25:25.000Z,-70.58439,41.46564333333333,2018-06-08T21:22:55.000Z,2018-06-08,21:22:55,NA,"NA",-70.58439,41.46564333333333,NA,NA,1,2018-06-08T21:25:25.000Z,21:25:25,-70.58438066666666,41.46564766666667,0.17,303.83,1,17.2968,31.5326,2630,2612.41,2485.17,215,216.98,220.84,12027,12062.33,12069.86,11.99,235.66,13,12,220.89,-0.13,2.01,4.97,NA,NA,NA
2018-06-08T21:26:25.000Z,-70.58442166666667,41.465665,2018-06-08T21:23:55.000Z,2018-06-08,21:23:55,NA,"NA",-70.58442166666667,41.465665,NA,NA,1,2018-06-08T21:26:25.000Z,21:26:25,-70.58441116666667,41.465667333333336,0.05,303.8,1,17.3512,31.5194,2632,2622.92,2485.07,215,216.77,220.65,12059,12062.76,12073.37,13,233.53,13,20,213.97,-0.1,2.15,4.97,NA,NA,NA
2018-06-08T21:27:25.000Z,-70.58442166666667,41.465671666666665,2018-06-08T21:24:55.000Z,2018-06-08,21:24:55,NA,"NA",-70.58442166666667,41.465671666666665,NA,NA,1,2018-06-08T21:27:25.000Z,21:27:25,-70.58440833333333,41.4656755,0.1,169.3,1,17.3588,31.5273,2657,2619.31,2484.47,215,216.72,220.57,12055,12064.14,12078.14,13,225.64,13,5,221.64,-0.24,2.16,4.97,NA,NA,NA
2018-06-08T21:28:25.000Z,-70.58445666666667,41.465698333333336,2018-06-08T21:25:55.000Z,2018-06-08,21:25:55,NA,"NA",-70.58445666666667,41.465698333333336,NA,NA,1,2018-06-08T21:28:25.000Z,21:28:25,-70.58445233333333,41.46569983333333,0.28,293.68,1,17.3738,31.5327,2582,2633,2484.72,217,215.47,220.53,12050,12064.85,12081.93,11.04,229.25,11,19,211.96,-0.23,2.18,4.97,NA,NA,NA
2018-06-08T21:29:25.000Z,-70.58451333333333,41.46572,2018-06-08T21:26:55.000Z,2018-06-08,21:26:55,NA,"NA",-70.58451333333333,41.46572,NA,NA,1,2018-06-08T21:29:25.000Z,21:29:25,-70.58450466666666,41.46572316666666,0.03,0,1,17.3354,31.5295,2672,2626.88,2484.26,211,214.78,220.48,12061,12064.06,12086.29,11.01,226.71,11,26,200.37,-0.19,1.88,4.97,NA,NA,NA
2018-06-08T21:30:25.000Z,-70.58451833333334,41.465736666666665,2018-06-08T21:27:55.000Z,2018-06-08,21:27:55,NA,"NA",-70.58451833333334,41.465736666666665,NA,NA,1,2018-06-08T21:30:25.000Z,21:30:25,-70.58451116666667,41.46573766666667,0.07,7.65,1,17.2351,31.5525,2650,2635.37,2481.78,217,215.33,220.42,12033,12062.63,12092.29,13,230.59,13,25,204.69,-0.2,2.02,4.97,NA,NA,NA
2018-06-08T21:31:25.000Z,-70.58455666666667,41.46574833333333,2018-06-08T21:28:55.000Z,2018-06-08,21:28:55,NA,"NA",-70.58455666666667,41.46574833333333,NA,NA,1,2018-06-08T21:31:25.000Z,21:31:25,-70.5845475,41.4657515,0.02,0,1,17.2697,31.54,2615,2623.2,2479.64,224,217.3,220.42,12073,12064.08,12098.08,13.01,229.28,13,36,197.64,-0.23,1.72,4.97,NA,NA,NA
2018-06-08T21:32:25.000Z,-70.58459,41.465745,2018-06-08T21:29:55.000Z,2018-06-08,21:29:55,NA,"NA",-70.58459,41.465745,NA,NA,1,2018-06-08T21:32:25.000Z,21:32:25,-70.58458266666666,41.46574616666667,0.1,292.66,1,17.2485,31.5462,2668,2614.68,2477.24,226,223.97,220.52,12068,12061.38,12102.6,11,232.55,11,41,189.55,-0.17,1.82,4.97,NA,NA,NA
2018-06-08T21:33:25.000Z,-70.58459,41.46575,2018-06-08T21:30:55.000Z,2018-06-08,21:30:55,NA,"NA",-70.58459,41.46575,NA,NA,1,2018-06-08T21:33:25.000Z,21:33:25,-70.58459066666667,41.46575083333333,0.04,337.44,1,17.2341,31.5471,2665,2640.68,2475.6,224,223.65,220.61,12031,12059.43,12105.75,13.98,235.45,14,44,188.85,-0.15,1.64,4.97,NA,NA,NA
2018-06-08T21:34:25.000Z,-70.584575,41.46574666666667,2018-06-08T21:31:55.000Z,2018-06-08,21:31:55,NA,"NA",-70.584575,41.46574666666667,NA,NA,1,2018-06-08T21:34:25.000Z,21:34:25,-70.58456933333333,41.465748166666664,0.2,71.11,1,17.2079,31.5536,2645,2618.51,2473.98,224,223.95,220.74,12065,12058.73,12107.11,11.1,226.41,11,33,192.53,-0.17,2.04,4.97,NA,NA,NA
2018-06-08T21:35:25.000Z,-70.58455,41.46575,2018-06-08T21:32:55.000Z,2018-06-08,21:32:55,NA,"NA",-70.58455,41.46575,NA,NA,1,2018-06-08T21:35:25.000Z,21:35:25,-70.58454866666666,41.46574783333333,0.04,22.73,1,17.3006,31.5311,2556,2607.14,2473.04,225,223.65,220.85,12066,12058.48,12107.36,13.08,220.46,13,25,197.04,-0.16,1.77,4.97,NA,NA,NA
2018-06-08T21:36:25.000Z,-70.58454333333333,41.465745,2018-06-08T21:33:55.000Z,2018-06-08,21:33:55,NA,"NA",-70.58454333333333,41.465745,NA,NA,1,2018-06-08T21:36:25.000Z,21:36:25,-70.58454016666667,41.465747666666665,0.17,311.57,1,17.3036,31.5336,2675,2601.81,2472.86,224,224.12,220.98,12049,12059.4,12107.61,14.07,222.73,14,22,198.25,-0.18,2.01,4.97,NA,NA,NA
2018-06-08T21:37:25.000Z,-70.58453833333333,41.46574833333333,2018-06-08T21:34:55.000Z,2018-06-08,21:34:55,NA,"NA",-70.58453833333333,41.46574833333333,NA,NA,1,2018-06-08T21:37:25.000Z,21:37:25,-70.584533,41.4657475,0.16,359.36,1,17.2877,31.5393,2565,2603.24,2473.3,226,224.47,221.12,12079,12059.43,12108.04,16.08,229.72,16,30,199.52,-0.12,1.72,4.97,NA,NA,NA
2018-06-08T21:38:25.000Z,-70.58453166666666,41.465756666666664,2018-06-08T21:35:55.000Z,2018-06-08,21:35:55,NA,"NA",-70.58453166666666,41.465756666666664,NA,NA,1,2018-06-08T21:38:25.000Z,21:38:25,-70.58452616666666,41.465752333333334,0.07,133.01,1,17.3091,31.5334,2594,2602.76,2474.12,224,224.03,221.27,12072,12057.51,12107.73,14.1,244.75,14,46,200.72,-0.22,1.89,4.97,NA,NA,NA
2018-06-08T21:39:25.000Z,-70.58453666666666,41.465741666666666,2018-06-08T21:36:55.000Z,2018-06-08,21:36:55,NA,"NA",-70.58453666666666,41.465741666666666,NA,NA,1,2018-06-08T21:39:25.000Z,21:39:25,-70.58452733333333,41.4657405,0.06,133.92,1,17.3044,31.5364,2605,2598.61,2476,224,224.2,221.43,12049,12056.54,12106.45,14,228.61,14,32,199.61,-0.21,1.94,4.97,NA,NA,NA
2018-06-08T21:40:25.000Z,-70.58452833333334,41.465736666666665,2018-06-08T21:37:55.000Z,2018-06-08,21:37:55,NA,"NA",-70.58452833333334,41.465736666666665,NA,NA,1,2018-06-08T21:40:25.000Z,21:40:25,-70.58452183333333,41.46573983333333,0.09,350.82,1,17.3342,31.5285,2604,2588.02,2481.53,223,223.98,221.58,12079,12056.01,12104.65,11,227.34,11,26,201.31,-0.07,2.1,4.97,NA,NA,NA
2018-06-08T21:41:25.000Z,-70.584525,41.46574833333333,2018-06-08T21:38:55.000Z,2018-06-08,21:38:55,NA,"NA",-70.584525,41.46574833333333,NA,NA,1,2018-06-08T21:41:25.000Z,21:41:25,-70.584521,41.46574783333333,0.12,173.88,1,17.3012,31.5387,2630,2575.46,2487.21,223,223.85,221.73,12054,12058.12,12102.47,13.1,234.85,13,30,202.7,-0.12,1.64,4.97,NA,NA,NA
2018-06-08T21:42:25.000Z,-70.58453666666666,41.46573,2018-06-08T21:39:55.000Z,2018-06-08,21:39:55,NA,"NA",-70.58453666666666,41.46573,NA,NA,1,2018-06-08T21:42:25.000Z,21:42:25,-70.58453083333333,41.46573133333333,0.02,0,1,17.2772,31.5408,2597,2593.58,2493.45,223,223.97,221.88,12080,12057.09,12099.73,16,237.16,16,38,196.13,-0.36,1.62,4.97,NA,NA,NA
2018-06-08T21:43:25.000Z,-70.5845,41.465725,2018-06-08T21:40:55.000Z,2018-06-08,21:40:55,NA,"NA",-70.5845,41.465725,NA,NA,1,2018-06-08T21:43:25.000Z,21:43:25,-70.58449066666667,41.465725666666664,0.13,124.68,1,17.326,31.5302,2594,2572.46,2501,223,224.25,222.05,12037,12055.53,12096.85,12.02,224.72,12,20,204.26,-0.15,2.16,4.97,NA,NA,NA
2018-06-08T21:44:25.000Z,-70.58448666666666,41.46572,2018-06-08T21:41:55.000Z,2018-06-08,21:41:55,NA,"NA",-70.58448666666666,41.46572,NA,NA,1,2018-06-08T21:44:25.000Z,21:44:25,-70.584477,41.46572283333333,0.05,171.55,1,17.3422,31.5271,2563,2573.51,2509.95,224,223.87,222.21,12049,12055.23,12093.89,14,227.57,14,18,207.57,-0.23,2.18,4.97,NA,NA,NA
2018-06-08T21:45:25.000Z,-70.58449,41.46572666666667,2018-06-08T21:42:55.000Z,2018-06-08,21:42:55,NA,"NA",-70.58449,41.46572666666667,NA,NA,1,2018-06-08T21:45:25.000Z,21:45:25,-70.58447933333333,41.46573133333333,0.07,232.84,1,17.3045,31.5406,2601,2582.53,2518.83,223,223.65,222.33,12049,12055.69,12091.26,15.09,227.81,15,20,208.65,-0.24,2.12,4.97,NA,NA,NA
2018-06-08T21:46:25.000Z,-70.58451666666667,41.465738333333334,2018-06-08T21:43:55.000Z,2018-06-08,21:43:55,NA,"NA",-70.58451666666667,41.465738333333334,NA,NA,1,2018-06-08T21:46:25.000Z,21:46:25,-70.5845075,41.46573733333334,0.1,176.88,1,17.1909,31.5708,2649,2618.14,2527.32,224,223.77,222.44,12048,12055.93,12089.72,14.07,220.79,14,25,203.13,-0.24,1.86,4.97,NA,NA,NA
2018-06-08T21:47:25.000Z,-70.58453333333334,41.46574833333333,2018-06-08T21:44:55.000Z,2018-06-08,21:44:55,NA,"NA",-70.58453333333334,41.46574833333333,NA,NA,1,2018-06-08T21:47:25.000Z,21:47:25,-70.58452983333333,41.46573933333333,0.11,222.62,1,17.1317,31.5803,2591,2632.51,2535.72,224,223.82,222.56,12060,12055.79,12088.4,14.02,229.01,14,26,198.36,-0.15,1.81,4.97,NA,NA,NA
2018-06-08T21:48:25.000Z,-70.58454333333333,41.465735,2018-06-08T21:45:55.000Z,2018-06-08,21:45:55,NA,"NA",-70.58454333333333,41.465735,NA,NA,1,2018-06-08T21:48:25.000Z,21:48:25,-70.584537,41.465728166666665,0.18,155.09,1,17.1728,31.5715,2570,2626.97,2543.92,224,223.87,222.66,12084,12055.86,12087,13.83,240.91,14,47,195.35,-0.07,1.41,4.97,NA,NA,NA
2018-06-08T21:49:25.000Z,-70.58452666666666,41.46572,2018-06-08T21:46:55.000Z,2018-06-08,21:46:55,NA,"NA",-70.58452666666666,41.46572,NA,NA,1,2018-06-08T21:49:25.000Z,21:49:25,-70.58452166666666,41.46571383333333,0.05,63.5,1,17.2429,31.5535,2579,2608.68,2548.86,224,223.67,222.69,12067,12058.37,12086.28,13.91,223.54,14,29,196.4,-0.21,2,4.97,NA,NA,NA
2018-06-08T21:50:25.000Z,-70.5845,41.46572333333334,2018-06-08T21:47:55.000Z,2018-06-08,21:47:55,NA,"NA",-70.5845,41.46572333333334,NA,NA,1,2018-06-08T21:50:25.000Z,21:50:25,-70.58449633333333,41.465716,0.11,132.72,1,17.2054,31.5642,2600,2578.14,2550.96,222,223.8,222.81,12030,12056.66,12084.46,11.02,226.92,11,25,204.41,-0.34,1.95,4.97,NA,NA,NA
2018-06-08T21:51:25.000Z,-70.58449666666667,41.46573166666667,2018-06-08T21:48:55.000Z,2018-06-08,21:48:55,NA,"NA",-70.58449666666667,41.46573166666667,NA,NA,1,2018-06-08T21:51:25.000Z,21:51:25,-70.5844995,41.46571733333333,0.05,154,1,17.0882,31.5903,2629,2628.27,2553.67,223,223.52,222.94,12063,12056.73,12083.18,10.07,235.24,10,30,204.83,-0.28,1.81,4.97,NA,NA,NA
2018-06-08T21:52:25.000Z,-70.58452333333334,41.465736666666665,2018-06-08T21:49:55.000Z,2018-06-08,21:49:55,NA,"NA",-70.58452333333334,41.465736666666665,NA,NA,1,2018-06-08T21:52:25.000Z,21:52:25,-70.58452233333334,41.4657265,0.03,0,1,16.9991,31.6096,2675,2647.22,2556.64,223,223.52,223.07,12104,12056.57,12082.44,13,229.62,12,32,197.74,-0.3,1.74,4.97,NA,NA,NA
2018-06-08T21:53:25.000Z,-70.584525,41.465738333333334,2018-06-08T21:50:55.000Z,2018-06-08,21:50:55,NA,"NA",-70.584525,41.465738333333334,NA,NA,1,2018-06-08T21:53:25.000Z,21:53:25,-70.58452,41.4657325,0.07,187.43,1,16.9905,31.6061,2511,2622.42,2559.56,223,223.5,223.21,12116,12059.64,12081.6,12,226.11,13,26,201.21,-0.32,1.71,4.97,NA,NA,NA
2018-06-08T21:54:25.000Z,-70.58454333333333,41.465741666666666,2018-06-08T21:51:55.000Z,2018-06-08,21:51:55,NA,"NA",-70.58454333333333,41.465741666666666,NA,NA,1,2018-06-08T21:54:25.000Z,21:54:25,-70.58453733333333,41.46573883333333,0.07,166.2,1,17.0083,31.6022,2545,2629.83,2561.92,223,223.47,223.35,12081,12062.95,12081.39,14.95,224.88,15,29,197.2,-0.13,1.51,4.97,NA,NA,NA
2018-06-08T21:55:25.000Z,-70.58454,41.465741666666666,2018-06-08T21:52:55.000Z,2018-06-08,21:52:55,NA,"NA",-70.58454,41.465741666666666,NA,NA,1,2018-06-08T21:55:25.000Z,21:55:25,-70.58453516666667,41.465735,0.08,152.75,1,16.9365,31.6189,2654,2626.03,2564.82,224,223.52,223.49,12118,12065.99,12080.97,13.92,231.58,13,34,196.8,-0.34,1.8,4.97,NA,NA,NA
2018-06-08T21:56:25.000Z,-70.584535,41.46572166666667,2018-06-08T21:53:55.000Z,2018-06-08,21:53:55,NA,"NA",-70.584535,41.46572166666667,NA,NA,1,2018-06-08T21:56:25.000Z,21:56:25,-70.58452133333333,41.465720166666664,0.16,148.16,1,17.0505,31.5927,2669,2653.29,2568.53,225,223.37,223.62,12105,12068.72,12080.12,12.9,218.45,13,29,196.47,-0.22,1.59,4.97,NA,NA,NA
2018-06-08T21:57:25.000Z,-70.58450666666667,41.465705,2018-06-08T21:54:55.000Z,2018-06-08,21:54:55,NA,"NA",-70.58450666666667,41.465705,NA,NA,1,2018-06-08T21:57:25.000Z,21:57:25,-70.5844965,41.46570116666667,0.04,0,1,17.0812,31.5877,2651,2621.1,2572.04,224,223.47,223.74,12084,12070.54,12078.85,13.96,244.6,14,44,198.27,-0.19,1.64,4.97,NA,NA,NA
2018-06-08T21:58:25.000Z,-70.58447166666667,41.465695,2018-06-08T21:55:55.000Z,2018-06-08,21:55:55,NA,"NA",-70.58447166666667,41.465695,NA,NA,1,2018-06-08T21:58:25.000Z,21:58:25,-70.5844625,41.4656865,0.06,39.31,1,17.1336,31.5764,2604,2616.97,2574.14,222,223.53,223.84,12067,12071.98,12077.69,14,234.29,14,29,203.96,-0.31,1.97,4.97,NA,NA,NA
2018-06-08T21:59:25.000Z,-70.58443833333334,41.46568833333333,2018-06-08T21:56:55.000Z,2018-06-08,21:56:55,NA,"NA",-70.58443833333334,41.46568833333333,NA,NA,1,2018-06-08T21:59:25.000Z,21:59:25,-70.58443183333333,41.4656755,0.01,0,1,16.9211,31.6246,3006,2801.81,2579.72,224,223.77,223.92,12086,12074.8,12077.07,12.01,235.3,12,23,211.83,-0.23,2.14,4.97,NA,NA,NA
2018-06-08T22:00:25.000Z,-70.58443,41.465685,2018-06-08T21:57:55.000Z,2018-06-08,21:57:55,NA,"NA",-70.58443,41.465685,NA,NA,1,2018-06-08T22:00:25.000Z,22:00:25,-70.58442216666667,41.4656725,0.12,144.85,1,16.9933,31.6075,2936,2919.07,2587.15,223,223.37,223.95,12107,12078.07,12076.79,11,231.8,11,19,213.8,-0.2,1.98,4.97,NA,NA,NA
2018-06-08T22:01:25.000Z,-70.58443166666666,41.465675,2018-06-08T21:58:55.000Z,2018-06-08,21:58:55,NA,"NA",-70.58443166666666,41.465675,NA,NA,1,2018-06-08T22:01:25.000Z,22:01:25,-70.584423,41.46567266666667,0.08,224.06,1,16.9129,31.6261,3089,2980.63,2596.07,223,223.35,223.91,12076,12082.22,12075.6,12.03,228.59,12,14,216.14,-0.18,1.92,4.97,NA,NA,NA
2018-06-08T22:02:25.000Z,-70.58444666666666,41.46568666666667,2018-06-08T21:59:55.000Z,2018-06-08,21:59:55,NA,"NA",-70.58444666666666,41.46568666666667,NA,NA,1,2018-06-08T22:02:25.000Z,22:02:25,-70.58444283333333,41.465682666666666,0.1,304.53,1,16.9976,31.6175,2978,2967.51,2604.41,224,223.43,223.84,12098,12085.32,12074.39,14.02,225.16,14,15,210.76,-0.14,1.98,4.97,NA,NA,NA
2018-06-08T22:03:25.000Z,-70.58445166666667,41.46570166666667,2018-06-08T22:00:55.000Z,2018-06-08,22:00:55,NA,"NA",-70.58445166666667,41.46570166666667,NA,NA,1,2018-06-08T22:03:25.000Z,22:03:25,-70.58444733333333,41.46569083333333,0.02,0,1,16.9145,31.6224,2945,2925.07,2612.1,225,222.92,223.74,12139,12089.71,12073.84,14.01,229.5,14,16,211.18,-0.35,1.89,4.97,NA,NA,NA
2018-06-08T22:04:25.000Z,-70.58446166666667,41.46570666666667,2018-06-08T22:01:55.000Z,2018-06-08,22:01:55,NA,"NA",-70.58446166666667,41.46570666666667,NA,NA,1,2018-06-08T22:04:25.000Z,22:04:25,-70.584459,41.465703,0.08,318.81,1,16.9164,31.6232,2999,2992.54,2621.48,224,223.32,223.66,12133,12093.87,12073.74,13.92,231.87,14,21,210.61,-0.27,2.05,4.97,NA,NA,NA
2018-06-08T22:05:25.000Z,-70.58448833333334,41.465718333333335,2018-06-08T22:02:55.000Z,2018-06-08,22:02:55,NA,"NA",-70.58448833333334,41.465718333333335,NA,NA,1,2018-06-08T22:05:25.000Z,22:05:25,-70.584495,41.465709,0.06,310.52,1,16.8708,31.6295,2693,2891.54,2628.79,224,223.32,223.56,12151,12098.39,12073.81,14.91,227.94,15,22,203.13,-0.17,2.16,4.97,NA,NA,NA
2018-06-08T22:06:25.000Z,-70.58449166666666,41.465715,2018-06-08T22:03:55.000Z,2018-06-08,22:03:55,NA,"NA",-70.58449166666666,41.465715,NA,NA,1,2018-06-08T22:06:25.000Z,22:06:25,-70.5844985,41.46571616666667,0.11,151.31,1,16.8328,31.6353,2709,2697.83,2632.06,223,223.27,223.47,12114,12102.14,12073.98,16,230,16,20,204,-0.14,1.63,4.97,NA,NA,NA
2018-06-08T22:07:25.000Z,-70.58450666666667,41.46570666666667,2018-06-08T22:04:55.000Z,2018-06-08,22:04:55,NA,"NA",-70.58450666666667,41.46570666666667,NA,NA,1,2018-06-08T22:07:25.000Z,22:07:25,-70.58451116666667,41.465711,0.04,0,1,16.8722,31.6252,2712,2702.49,2635.47,223,223.62,223.37,12111,12104.17,12073.92,13.92,226.34,14,20,200.6,-0.25,2.27,4.97,NA,NA,NA
2018-06-08T22:08:25.000Z,-70.58451166666667,41.465716666666665,2018-06-08T22:05:55.000Z,2018-06-08,22:05:55,NA,"NA",-70.58451166666667,41.465716666666665,NA,NA,1,2018-06-08T22:08:25.000Z,22:08:25,-70.584507,41.4657175,0.04,91.25,1,16.932,31.6152,2664,2692.34,2638.89,223,223.45,223.28,12095,12107.95,12074.09,13,215.4,15,11,203.4,-0.28,2.23,4.97,NA,NA,NA
2018-06-08T22:09:26.000Z,-70.58451833333334,41.46572833333333,2018-06-08T22:06:55.000Z,2018-06-08,22:06:55,NA,"NA",-70.58451833333334,41.46572833333333,NA,NA,1,2018-06-08T22:09:26.000Z,22:09:26,-70.58451716666667,41.465729,0.12,293.44,1,16.9234,31.6238,2889,2780.15,2643.63,220,223.15,223.2,12104,12111,12073.98,14.98,216,16,9,205.31,-0.15,1.81,4.97,NA,NA,NA
2018-06-08T22:10:26.000Z,-70.58454333333333,41.465736666666665,2018-06-08T22:07:55.000Z,2018-06-08,22:07:55,NA,"NA",-70.58454333333333,41.465736666666665,NA,NA,1,2018-06-08T22:10:26.000Z,22:10:26,-70.58453583333333,41.465744666666666,0.11,273.09,1,16.9055,31.6276,2834,2823.19,2649.19,222,222.93,223.1,12151,12113.38,12074.47,15.97,231.02,16,26,205.36,-0.26,2.12,4.97,NA,NA,NA
